Place,Latitude,Longitude
Hong Kong,22.396428,114.109497
"New York, NY",40.7127837,-74.0059413
"Kolkata, India",22.572646,88.363895
"London, UK",51.5073509,-0.1277583
"Tel Aviv, Israel",32.0852999,34.7817676
Amsterdam,52.3702157,4.8951679
Singapore,1.352083,103.819836
"Kuala Lumpur, Malaysia",3.139003,101.686855
"San Francisco, CA",37.7749295,-122.4194155
